
$GNRMC,193238.20,A,3330.7573605,N,11224.6143776,W,0.0070,220.701,240517,,,D*67
$GNRMC,193238.40,A,3330.7573609,N,11224.6143780,W,0.0183,320.696,240517,,,D*67
$GNRMC,193238.60,A,3330.7573609,N,11224.6143769,W,0.0213,046.722,240517,,,D*65
$GNRMC,193238.80,A,3330.7573597,N,11224.6143773,W,0.0267,161.345,240517,,,D*66
$GNRMC,193239.00,A,3330.7573612,N,11224.6143783,W,0.0281,317.918,240517,,,D*67
$GNRMC,193239.20,A,3330.7573607,N,11224.6143779,W,0.0041,334.177,240517,,,D*6A
$GNRMC,193239.40,A,3330.7573608,N,11224.6143783,W,0.0108,313.928,240517,,,D*6D
$GNRMC,193239.60,A,3330.7573608,N,11224.6143779,W,0.0076,303.996,240517,,,D*66
$GNRMC,193239.80,A,3330.7573609,N,11224.6143774,W,0.0080,011.941,240517,,,D*67
$GNRMC,193240.00,A,3330.7573608,N,11224.6143761,W,0.0280,078.243,240517,,,D*60
$GNRMC,193240.20,A,3330.7573607,N,11224.6143765,W,0.0102,058.123,240517,,,D*67
$GNRMC,193240.40,A,3330.7573606,N,11224.6143716,W,0.0136,300.310,240517,,,D*6F
$GNRMC,193240.60,A,3330.7573608,N,11224.6143707,W,0.0151,007.693,240517,,,D*68
$GNRMC,193240.80,A,3330.7573603,N,11224.6143709,W,0.0128,273.866,240517,,,D*68
$GNRMC,193241.00,A,3330.7573595,N,11224.6143698,W,0.0195,144.718,240517,,,D*63
$GNRMC,193241.20,A,3330.7573604,N,11224.6143708,W,0.0230,318.505,240517,,,D*6B
$GNRMC,193241.40,A,3330.7573580,N,11224.6143668,W,0.0287,193.586,240517,,,D*63
$GNRMC,193241.60,A,3330.7573591,N,11224.6143660,W,0.0256,059.232,240517,,,D*6A
$GNRMC,193241.80,A,3330.7573584,N,11224.6143657,W,0.0219,091.929,240517,,,D*6A
$GNRMC,193242.00,A,3330.7573584,N,11224.6143666,W,0.0111,302.329,240517,,,D*6B
$GNRMC,193242.20,A,3330.7573581,N,11224.6143664,W,0.0167,308.645,240517,,,D*6A
$GNRMC,193242.40,A,3330.7573583,N,11224.6143657,W,0.0243,204.348,240517,,,D*6E
$GNRMC,193242.60,A,3330.7573576,N,11224.6143654,W,0.0184,197.299,240517,,,D*69
$GNRMC,193242.80,A,3330.7573579,N,11224.6143654,W,0.0137,309.818,240517,,,D*66
$GNRMC,193243.00,A,3330.7573583,N,11224.6143658,W,0.0430,316.531,240517,,,D*6C
$GNRMC,193243.20,A,3330.7573571,N,11224.6143642,W,0.0102,072.395,240517,,,D*65
$GNRMC,193243.40,A,3330.7573576,N,11224.6143634,W,0.0297,055.828,240517,,,D*62
$GNRMC,193243.60,A,3330.7573567,N,11224.6143629,W,0.0358,094.773,240517,,,D*62
$GNRMC,193243.80,A,3330.7573568,N,11224.6143642,W,0.0118,326.510,240517,,,D*65
$GNRMC,193244.00,A,3330.7573557,N,11224.6143640,W,0.0234,232.821,240517,,,D*62
$GNRMC,193244.20,A,3330.7573553,N,11224.6143629,W,0.0221,174.338,240517,,,D*6D
$GNRMC,193244.40,A,3330.7573557,N,11224.6143622,W,0.0168,086.111,240517,,,D*6F
$GNRMC,193244.60,A,3330.7573555,N,11224.6143625,W,0.0012,204.675,240517,,,D*69
$GNRMC,193244.80,A,3330.7573547,N,11224.6143621,W,0.0129,165.555,240517,,,D*6C
$GNRMC,193245.00,A,3330.7573544,N,11224.6143625,W,0.0191,218.888,240517,,,D*65
$GNRMC,193245.20,A,3330.7573554,N,11224.6143621,W,0.0251,316.427,240517,,,D*6B
$GNRMC,193245.40,A,3330.7573547,N,11224.6143609,W,0.0132,128.673,240517,,,D*6F
$GNRMC,193245.60,A,3330.7573548,N,11224.6143605,W,0.0192,101.160,240517,,,D*6A
$GNRMC,193245.80,A,3330.7573546,N,11224.6143610,W,0.0095,082.108,240517,,,D*6C
$GNRMC,193246.00,A,3330.7573544,N,11224.6143616,W,0.0079,204.417,240517,,,D*66
$GNRMC,193246.20,A,3330.7573542,N,11224.6143618,W,0.0091,201.771,240517,,,D*6C
$GNRMC,193246.40,A,3330.7573532,N,11224.6143591,W,0.0074,264.233,240517,,,D*64
$GNRMC,193246.60,A,3330.7573533,N,11224.6143587,W,0.0209,130.694,240517,,,D*63
$GNRMC,193246.80,A,3330.7573538,N,11224.6143590,W,0.0102,101.515,240517,,,D*60
$GNRMC,193247.00,A,3330.7573544,N,11224.6143606,W,0.0254,299.637,240517,,,D*6F
$GNRMC,193247.20,A,3330.7573535,N,11224.6143612,W,0.0518,241.109,240517,,,D*6E
$GNRMC,193247.40,A,3330.7573514,N,11224.6143605,W,0.0174,039.151,240517,,,D*63
$GNRMC,193247.60,A,3330.7573503,N,11224.6143621,W,0.0433,217.953,240517,,,D*63
$GNRMC,193247.80,A,3330.7573520,N,11224.6143609,W,0.0217,029.142,240517,,,D*61
$GNRMC,193248.00,A,3330.7573525,N,11224.6143616,W,0.0181,016.791,240517,,,D*65
$GNRMC,193248.20,A,3330.7573523,N,11224.6143637,W,0.0350,265.103,240517,,,D*67
$GNRMC,193248.40,A,3330.7573510,N,11224.6143630,W,0.0124,055.818,240517,,,D*65
$GNRMC,193248.60,A,3330.7573504,N,11224.6143633,W,0.0145,149.088,240517,,,D*6B
$GNRMC,193248.80,A,3330.7573513,N,11224.6143640,W,0.0227,327.944,240517,,,D*63
$GNRMC,193249.00,A,3330.7573513,N,11224.6143645,W,0.0295,276.410,240517,,,D*6F
$GNRMC,193249.20,A,3330.7573513,N,11224.6143640,W,0.0200,240.790,240517,,,D*6A
$GNRMC,193249.40,A,3330.7573514,N,11224.6143640,W,0.0254,204.467,240517,,,D*61
$GNRMC,193249.60,A,3330.7573533,N,11224.6143630,W,0.0401,034.666,240517,,,D*65
$GNRMC,193249.80,A,3330.7573519,N,11224.6143635,W,0.0122,176.409,240517,,,D*6E
$GNRMC,193250.00,A,3330.7573522,N,11224.6143637,W,0.0231,208.571,240517,,,D*61
$GNRMC,193250.20,A,3330.7573527,N,11224.6143643,W,0.0374,245.872,240517,,,D*62
$GNRMC,193250.40,A,3330.7573537,N,11224.6143631,W,0.0116,055.108,240517,,,D*61
$GNRMC,193250.60,A,3330.7573536,N,11224.6143645,W,0.0203,270.162,240517,,,D*6F
$GNRMC,193250.80,A,3330.7573532,N,11224.6143645,W,0.0223,229.274,240517,,,D*6F
$GNRMC,193251.00,A,3330.7573540,N,11224.6143639,W,0.0030,199.470,240517,,,D*62
$GNRMC,193251.20,A,3330.7573550,N,11224.6143654,W,0.0356,302.141,240517,,,D*6E
$GNRMC,193251.40,A,3330.7573536,N,11224.6143613,W,0.0109,190.336,240517,,,D*68
$GNRMC,193251.60,A,3330.7573544,N,11224.6143613,W,0.0107,093.961,240517,,,D*6B
$GNRMC,193251.80,A,3330.7573550,N,11224.6143622,W,0.0093,359.707,240517,,,D*65
$GNRMC,193252.00,A,3330.7573547,N,11224.6143627,W,0.0117,218.270,240517,,,D*61
$GNRMC,193252.20,A,3330.7573547,N,11224.6143631,W,0.0210,205.084,240517,,,D*65
$GNRMC,193252.40,A,3330.7573560,N,11224.6143573,W,0.0236,061.119,240517,,,D*62
$GNRMC,193252.60,A,3330.7573560,N,11224.6143577,W,0.0201,079.675,240517,,,D*64
$GNRMC,193252.80,A,3330.7573556,N,11224.6143588,W,0.0129,178.294,240517,,,D*6D
$GNRMC,193253.00,A,3330.7573553,N,11224.6143596,W,0.0249,195.618,240517,,,D*68
$GNRMC,193253.20,A,3330.7573557,N,11224.6143591,W,0.0283,091.540,240517,,,D*64
$GNRMC,193253.40,A,3330.7573518,N,11224.6143625,W,0.0429,160.953,240517,,,D*62
$GNRMC,193253.60,A,3330.7573528,N,11224.6143632,W,0.0187,112.787,240517,,,D*66
$GNRMC,193253.80,A,3330.7573534,N,11224.6143641,W,0.0117,027.241,240517,,,D*60
$GNRMC,193254.00,A,3330.7573534,N,11224.6143643,W,0.0216,053.142,240517,,,D*6C
$GNRMC,193254.20,A,3330.7573536,N,11224.6143648,W,0.0176,053.152,240517,,,D*63
$GNRMC,193254.40,A,3330.7573553,N,11224.6143655,W,0.0145,276.423,240517,,,D*6C
$GNRMC,193254.60,A,3330.7573552,N,11224.6143650,W,0.0086,170.923,240517,,,D*6C
$GNRMC,193254.80,A,3330.7573557,N,11224.6143661,W,0.0160,272.537,240517,,,D*64
$GNRMC,193255.00,A,3330.7573564,N,11224.6143664,W,0.0154,296.302,240517,,,D*65
$GNRMC,193255.20,A,3330.7573562,N,11224.6143662,W,0.0076,156.075,240517,,,D*6A
$GNRMC,193255.40,A,3330.7573558,N,11224.6143676,W,0.0088,174.880,240517,,,D*63
$GNRMC,193255.60,A,3330.7573574,N,11224.6143681,W,0.0387,354.924,240517,,,D*64
$GNRMC,193255.80,A,3330.7573574,N,11224.6143687,W,0.0068,320.429,240517,,,D*6D
$GNRMC,193256.00,A,3330.7573583,N,11224.6143682,W,0.0423,052.352,240517,,,D*6D
$GNRMC,193256.20,A,3330.7573579,N,11224.6143698,W,0.0072,111.813,240517,,,D*69
$GNRMC,193256.40,A,3330.7573571,N,11224.6143655,W,0.0133,080.551,240517,,,D*60
$GNRMC,193256.60,A,3330.7573574,N,11224.6143669,W,0.0165,354.987,240517,,,D*66
$GNRMC,193256.80,A,3330.7573577,N,11224.6143688,W,0.0316,310.808,240517,,,D*64
$GNRMC,193257.00,A,3330.7573574,N,11224.6143695,W,0.0146,261.328,240517,,,D*6B
$GNRMC,193257.20,A,3330.7573580,N,11224.6143712,W,0.0390,290.386,240517,,,D*6F
$GNRMC,193257.40,A,3330.7573590,N,11224.6143699,W,0.0239,060.097,240517,,,D*66
$GNRMC,193257.60,A,3330.7573593,N,11224.6143712,W,0.0063,305.780,240517,,,D*69
$GNRMC,193257.80,A,3330.7573603,N,11224.6143717,W,0.0096,021.476,240517,,,D*6D
$GNRMC,193258.00,A,3330.7573615,N,11224.6143720,W,0.0256,029.262,240517,,,D*6C
$GNRMC,193258.20,A,3330.7573624,N,11224.6143728,W,0.0151,339.994,240517,,,D*60
$GNRMC,193258.40,A,3330.7573603,N,11224.6143726,W,0.0120,051.950,240517,,,D*6E
$GNRMC,193258.60,A,3330.7573612,N,11224.6143731,W,0.0107,357.324,240517,,,D*63
$GNRMC,193258.80,A,3330.7573618,N,11224.6143729,W,0.0104,347.901,240517,,,D*61
$GNRMC,193259.00,A,3330.7573620,N,11224.6143705,W,0.0362,098.417,240517,,,D*64
$GNRMC,193259.20,A,3330.7573632,N,11224.6143638,W,0.1181,082.203,240517,,,D*6C
$GNRMC,193259.40,A,3330.7573603,N,11224.6143564,W,0.1564,092.840,240517,,,D*61
$GNRMC,193259.60,A,3330.7573610,N,11224.6143475,W,0.1656,092.004,240517,,,D*6A
$GNRMC,193259.80,A,3330.7573609,N,11224.6143355,W,0.2048,094.087,240517,,,D*6E
$GNRMC,193300.00,A,3330.7573613,N,11224.6143220,W,0.2332,088.324,240517,,,D*6A
$GNRMC,193300.20,A,3330.7573602,N,11224.6143072,W,0.2390,094.166,240517,,,D*6C
$GNRMC,193300.40,A,3330.7573586,N,11224.6142904,W,0.2550,095.329,240517,,,D*6E
$GNRMC,193300.60,A,3330.7573608,N,11224.6142691,W,0.3191,084.673,240517,,,D*68
$GNRMC,193300.80,A,3330.7573622,N,11224.6142455,W,0.3779,082.123,240517,,,D*60
$GNRMC,193301.00,A,3330.7573634,N,11224.6142198,W,0.4130,085.408,240517,,,D*6D
$GNRMC,193301.20,A,3330.7573634,N,11224.6141911,W,0.4529,090.187,240517,,,D*6F
$GNRMC,193301.40,A,3330.7573610,N,11224.6141563,W,0.4613,096.580,240517,,,D*69
$GNRMC,193301.60,A,3330.7573606,N,11224.6141232,W,0.4993,092.653,240517,,,D*61
$GNRMC,193301.80,A,3330.7573619,N,11224.6140854,W,0.5924,086.963,240517,,,D*6E
$GNRMC,193302.00,A,3330.7573655,N,11224.6140453,W,0.6539,083.004,240517,,,D*68
$GNRMC,193302.20,A,3330.7573661,N,11224.6140026,W,0.6772,090.262,240517,,,D*66
$GNRMC,193302.40,A,3330.7573597,N,11224.6139580,W,0.7127,101.388,240517,,,D*66
$GNRMC,193302.60,A,3330.7573582,N,11224.6139063,W,0.8058,093.390,240517,,,D*6D
$GNRMC,193302.80,A,3330.7573663,N,11224.6138503,W,0.8774,079.324,240517,,,D*6F
$GNRMC,193303.00,A,3330.7573675,N,11224.6137886,W,0.9423,086.936,240517,,,D*67
$GNRMC,193303.20,A,3330.7573639,N,11224.6137241,W,1.0170,094.862,240517,,,D*64
$GNRMC,193303.40,A,3330.7573661,N,11224.6136570,W,1.0198,088.871,240517,,,D*62
$GNRMC,193303.60,A,3330.7573687,N,11224.6135863,W,1.0493,087.132,240517,,,D*6B
$GNRMC,193303.80,A,3330.7573733,N,11224.6135110,W,1.1281,085.081,240517,,,D*69
$GNRMC,193304.00,A,3330.7573719,N,11224.6134349,W,1.1234,090.631,240517,,,D*66
$GNRMC,193304.20,A,3330.7573707,N,11224.6133516,W,1.2486,090.661,240517,,,D*69
$GNRMC,193304.40,A,3330.7573715,N,11224.6132635,W,1.2834,090.004,240517,,,D*6F
$GNRMC,193304.60,A,3330.7573716,N,11224.6131753,W,1.3538,090.168,240517,,,D*67
$GNRMC,193304.80,A,3330.7573700,N,11224.6130858,W,1.3977,092.341,240517,,,D*67
$GNRMC,193305.00,A,3330.7573734,N,11224.6129929,W,1.4169,088.113,240517,,,D*68
$GNRMC,193305.20,A,3330.7573752,N,11224.6128967,W,1.4435,087.960,240517,,,D*6E
$GNRMC,193305.40,A,3330.7573772,N,11224.6127983,W,1.4863,087.810,240517,,,D*66
$GNRMC,193305.60,A,3330.7573753,N,11224.6127000,W,1.4922,090.836,240517,,,D*63
$GNRMC,193305.80,A,3330.7573731,N,11224.6126034,W,1.4474,091.970,240517,,,D*63
$GNRMC,193306.00,A,3330.7573751,N,11224.6125061,W,1.4559,089.191,240517,,,D*6D
$GNRMC,193306.20,A,3330.7573787,N,11224.6124094,W,1.4514,087.230,240517,,,D*60
$GNRMC,193306.40,A,3330.7573834,N,11224.6123108,W,1.4375,087.520,240517,,,D*65
$GNRMC,193306.60,A,3330.7573816,N,11224.6122183,W,1.3864,091.307,240517,,,D*6D
$GNRMC,193306.80,A,3330.7573839,N,11224.6121288,W,1.3514,089.034,240517,,,D*65
$GNRMC,193307.00,A,3330.7573903,N,11224.6120364,W,1.3810,085.408,240517,,,D*68
$GNRMC,193307.20,A,3330.7573930,N,11224.6119399,W,1.4151,086.914,240517,,,D*6A
$GNRMC,193307.40,A,3330.7573908,N,11224.6118456,W,1.4196,092.047,240517,,,D*63
$GNRMC,193307.60,A,3330.7573870,N,11224.6117502,W,1.4229,092.810,240517,,,D*6D
$GNRMC,193307.80,A,3330.7573838,N,11224.6116549,W,1.4400,092.389,240517,,,D*67
$GNRMC,193308.00,A,3330.7573834,N,11224.6115625,W,1.3748,089.699,240517,,,D*60
$GNRMC,193308.20,A,3330.7573833,N,11224.6114682,W,1.4073,089.527,240517,,,D*67
$GNRMC,193308.40,A,3330.7574074,N,11224.6114003,W,1.4086,086.363,240517,,,D*61
$GNRMC,193308.60,A,3330.7574096,N,11224.6113040,W,1.4338,087.084,240517,,,D*62
$GNRMC,193308.80,A,3330.7574064,N,11224.6112096,W,1.3888,092.421,240517,,,D*63
$GNRMC,193309.00,A,3330.7574102,N,11224.6111125,W,1.4486,088.844,240517,,,D*60
$GNRMC,193309.20,A,3330.7574116,N,11224.6110171,W,1.4537,089.417,240517,,,D*67
$GNRMC,193309.40,A,3330.7574167,N,11224.6109266,W,1.3692,085.925,240517,,,D*61
$GNRMC,193309.60,A,3330.7574150,N,11224.6108324,W,1.4119,090.622,240517,,,D*6E
$GNRMC,193309.80,A,3330.7574181,N,11224.6107379,W,1.4171,088.360,240517,,,D*6F
$GNRMC,193310.00,A,3330.7574205,N,11224.6106369,W,1.5370,087.917,240517,,,D*67
$GNRMC,193310.20,A,3330.7574228,N,11224.6105424,W,1.4536,088.561,240517,,,D*60
$GNRMC,193310.40,A,3330.7574202,N,11224.6104450,W,1.5182,089.981,240517,,,D*65
$GNRMC,193310.60,A,3330.7574202,N,11224.6103489,W,1.4710,089.585,240517,,,D*60
$GNRMC,193310.80,A,3330.7574201,N,11224.6102505,W,1.5106,090.875,240517,,,D*63
$GNRMC,193311.00,A,3330.7574231,N,11224.6101566,W,1.4187,088.166,240517,,,D*65
$GNRMC,193311.20,A,3330.7574268,N,11224.6100646,W,1.3744,087.028,240517,,,D*61
$GNRMC,193311.40,A,3330.7574214,N,11224.6099653,W,1.4273,088.499,240517,,,D*6E
$GNRMC,193311.60,A,3330.7574241,N,11224.6098710,W,1.4365,088.296,240517,,,D*64
$GNRMC,193311.80,A,3330.7574232,N,11224.6097752,W,1.4443,090.161,240517,,,D*66
$GNRMC,193312.00,A,3330.7574238,N,11224.6096820,W,1.4061,090.198,240517,,,D*6E
$GNRMC,193312.20,A,3330.7574287,N,11224.6095841,W,1.4760,086.606,240517,,,D*6D
$GNRMC,193312.40,A,3330.7574362,N,11224.6094894,W,1.4454,085.560,240517,,,D*6C
$GNRMC,193312.60,A,3330.7574367,N,11224.6093943,W,1.4331,090.715,240517,,,D*67
$GNRMC,193312.80,A,3330.7574352,N,11224.6092982,W,1.4472,092.716,240517,,,D*62
$GNRMC,193313.00,A,3330.7574353,N,11224.6092026,W,1.4581,092.021,240517,,,D*63
$GNRMC,193313.20,A,3330.7574406,N,11224.6091080,W,1.4058,086.692,240517,,,D*63
$GNRMC,193313.40,A,3330.7574429,N,11224.6090133,W,1.4240,088.195,240517,,,D*65
$GNRMC,193313.60,A,3330.7574440,N,11224.6089196,W,1.3832,089.958,240517,,,D*6F
$GNRMC,193313.80,A,3330.7574449,N,11224.6088275,W,1.3783,089.371,240517,,,D*63
$GNRMC,193314.00,A,3330.7574479,N,11224.6087332,W,1.3945,088.197,240517,,,D*6D
$GNRMC,193314.20,A,3330.7574515,N,11224.6086390,W,1.4215,086.291,240517,,,D*6F
$GNRMC,193314.40,A,3330.7574703,N,11224.6085113,W,1.5461,091.726,240517,,,D*6D
$GNRMC,193314.60,A,3330.7574707,N,11224.6084134,W,1.5363,091.177,240517,,,D*68
$GNRMC,193314.80,A,3330.7574699,N,11224.6083152,W,1.4908,091.435,240517,,,D*62
$GNRMC,193315.00,A,3330.7574771,N,11224.6082260,W,1.3408,085.887,240517,,,D*65
$GNRMC,193315.20,A,3330.7574815,N,11224.6081341,W,1.3353,084.915,240517,,,D*69
$GNRMC,193315.40,A,3330.7574821,N,11224.6080381,W,1.4170,089.236,240517,,,D*66
$GNRMC,193315.60,A,3330.7574836,N,11224.6079422,W,1.4490,089.308,240517,,,D*6D
$GNRMC,193315.80,A,3330.7574823,N,11224.6078440,W,1.4986,091.024,240517,,,D*6C
$GNRMC,193316.00,A,3330.7574884,N,11224.6077508,W,1.4236,085.875,240517,,,D*61
$GNRMC,193316.20,A,3330.7574922,N,11224.6076512,W,1.4731,086.368,240517,,,D*62
$GNRMC,193316.40,A,3330.7574978,N,11224.6075551,W,1.3585,085.048,240517,,,D*67
$GNRMC,193316.60,A,3330.7574966,N,11224.6074557,W,1.4663,088.920,240517,,,D*6B
$GNRMC,193316.80,A,3330.7575027,N,11224.6073620,W,1.3869,084.765,240517,,,D*6C
$GNRMC,193317.00,A,3330.7575061,N,11224.6072637,W,1.4476,087.542,240517,,,D*61
$GNRMC,193317.20,A,3330.7575088,N,11224.6071716,W,1.3682,088.192,240517,,,D*6D
$GNRMC,193317.40,A,3330.7575102,N,11224.6070770,W,1.3671,087.812,240517,,,D*6B
$GNRMC,193317.60,A,3330.7575091,N,11224.6069818,W,1.4133,090.704,240517,,,D*63
$GNRMC,193317.80,A,3330.7575162,N,11224.6068831,W,1.5035,086.117,240517,,,D*6F
$GNRMC,193318.00,A,3330.7575173,N,11224.6067848,W,1.5246,088.171,240517,,,D*61
$GNRMC,193318.20,A,3330.7575161,N,11224.6066915,W,1.4264,090.731,240517,,,D*62
$GNRMC,193318.40,A,3330.7575197,N,11224.6065926,W,1.4759,088.074,240517,,,D*6A
$GNRMC,193318.60,A,3330.7575204,N,11224.6065004,W,1.3926,088.740,240517,,,D*69
$GNRMC,193318.80,A,3330.7575210,N,11224.6064031,W,1.4410,090.625,240517,,,D*61
$GNRMC,193319.00,A,3330.7575255,N,11224.6063121,W,1.3649,087.514,240517,,,D*60
$GNRMC,193319.20,A,3330.7575316,N,11224.6062147,W,1.4575,084.797,240517,,,D*64
$GNRMC,193319.40,A,3330.7575347,N,11224.6061171,W,1.4730,086.123,240517,,,D*68
$GNRMC,193319.60,A,3330.7575375,N,11224.6060181,W,1.5117,087.954,240517,,,D*6E
$GNRMC,193319.80,A,3330.7575393,N,11224.6059186,W,1.5150,088.353,240517,,,D*64
$GNRMC,193320.00,A,3330.7575416,N,11224.6058253,W,1.4104,089.060,240517,,,D*64
$GNRMC,193320.20,A,3330.7575454,N,11224.6057296,W,1.4087,087.998,240517,,,D*6C
$GNRMC,193320.40,A,3330.7575481,N,11224.6056320,W,1.4605,087.742,240517,,,D*6A
$GNRMC,193320.60,A,3330.7575480,N,11224.6055335,W,1.4958,090.357,240517,,,D*6F
$GNRMC,193320.80,A,3330.7575502,N,11224.6054415,W,1.3741,088.579,240517,,,D*6C
$GNRMC,193321.00,A,3330.7575522,N,11224.6053480,W,1.3968,089.048,240517,,,D*6F
$GNRMC,193321.20,A,3330.7575536,N,11224.6052571,W,1.3590,088.211,240517,,,D*62
$GNRMC,193321.40,A,3330.7575527,N,11224.6051579,W,1.5055,090.692,240517,,,D*63
$GNRMC,193321.60,A,3330.7575514,N,11224.6050555,W,1.5500,091.074,240517,,,D*64
$GNRMC,193321.80,A,3330.7575500,N,11224.6049502,W,1.6184,091.461,240517,,,D*6E
$GNRMC,193322.00,A,3330.7575528,N,11224.6048513,W,1.4946,088.660,240517,,,D*61
$GNRMC,193322.20,A,3330.7575535,N,11224.6047535,W,1.4572,089.022,240517,,,D*6E
$GNRMC,193322.40,A,3330.7575493,N,11224.6046617,W,1.3218,092.628,240517,,,D*6D
$GNRMC,193322.60,A,3330.7575517,N,11224.6045647,W,1.4304,087.916,240517,,,D*69
$GNRMC,193322.80,A,3330.7575540,N,11224.6044675,W,1.4686,086.178,240517,,,D*6B
$GNRMC,193323.00,A,3330.7575597,N,11224.6043726,W,1.4331,084.375,240517,,,D*6C
$GNRMC,193323.20,A,3330.7575613,N,11224.6042746,W,1.4526,087.857,240517,,,D*6E
$GNRMC,193323.40,A,3330.7575622,N,11224.6041724,W,1.5401,090.498,240517,,,D*61
$GNRMC,193323.60,A,3330.7575637,N,11224.6040704,W,1.5473,088.570,240517,,,D*6F
$GNRMC,193323.80,A,3330.7575694,N,11224.6039745,W,1.4533,085.114,240517,,,D*6C
$GNRMC,193324.00,A,3330.7575718,N,11224.6038771,W,1.4529,086.816,240517,,,D*63
$GNRMC,193324.20,A,3330.7575729,N,11224.6037847,W,1.3984,089.949,240517,,,D*6E
$GNRMC,193324.40,A,3330.7575729,N,11224.6036869,W,1.4985,090.189,240517,,,D*6F
$GNRMC,193324.60,A,3330.7575747,N,11224.6035930,W,1.4505,089.041,240517,,,D*62
$GNRMC,193324.80,A,3330.7575739,N,11224.6034973,W,1.4524,091.925,240517,,,D*62
$GNRMC,193325.00,A,3330.7575770,N,11224.6034057,W,1.4072,088.460,240517,,,D*6B
$GNRMC,193325.20,A,3330.7575780,N,11224.6033089,W,1.5202,090.431,240517,,,D*6B
$GNRMC,193325.40,A,3330.7575778,N,11224.6032126,W,1.5132,090.940,240517,,,D*64
$GNRMC,193325.60,A,3330.7575756,N,11224.6031116,W,1.5962,092.219,240517,,,D*62
$GNRMC,193325.80,A,3330.7575785,N,11224.6030198,W,1.4219,087.674,240517,,,D*68
$GNRMC,193326.00,A,3330.7575821,N,11224.6029239,W,1.4539,086.509,240517,,,D*6F
$GNRMC,193326.20,A,3330.7575856,N,11224.6028290,W,1.4179,086.376,240517,,,D*61
$GNRMC,193326.40,A,3330.7575866,N,11224.6027351,W,1.4151,089.536,240517,,,D*60
$GNRMC,193326.60,A,3330.7575880,N,11224.6026378,W,1.4514,089.640,240517,,,D*67
$GNRMC,193326.80,A,3330.7575930,N,11224.6025424,W,1.4422,086.912,240517,,,D*6D
$GNRMC,193327.00,A,3330.7575958,N,11224.6024429,W,1.5085,088.764,240517,,,D*6F
$GNRMC,193327.20,A,3330.7575985,N,11224.6023469,W,1.4822,089.434,240517,,,D*6D
$GNRMC,193327.40,A,3330.7575980,N,11224.6022423,W,1.5041,091.065,240517,,,D*64
$GNRMC,193327.60,A,3330.7576010,N,11224.6021470,W,1.4217,089.019,240517,,,D*62
$GNRMC,193327.80,A,3330.7576033,N,11224.6020506,W,1.4386,087.979,240517,,,D*64
$GNRMC,193328.00,A,3330.7576039,N,11224.6019578,W,1.3754,089.532,240517,,,D*6B
$GNRMC,193328.20,A,3330.7576068,N,11224.6018578,W,1.5016,088.521,240517,,,D*68
$GNRMC,193328.40,A,3330.7576115,N,11224.6017610,W,1.4119,089.093,240517,,,D*65
$GNRMC,193328.60,A,3330.7576161,N,11224.6016674,W,1.3912,087.509,240517,,,D*6B
$GNRMC,193328.80,A,3330.7576181,N,11224.6015730,W,1.3829,088.365,240517,,,D*63
$GNRMC,193329.00,A,3330.7576227,N,11224.6014747,W,1.4729,086.948,240517,,,D*67
$GNRMC,193329.20,A,3330.7576250,N,11224.6013731,W,1.5588,087.327,240517,,,D*69
$GNRMC,193329.40,A,3330.7576249,N,11224.6012808,W,1.4240,089.094,240517,,,D*64
$GNRMC,193329.60,A,3330.7576247,N,11224.6011845,W,1.4218,089.786,240517,,,D*6B
$GNRMC,193329.80,A,3330.7576257,N,11224.6010887,W,1.4048,090.000,240517,,,D*6D
$GNRMC,193330.00,A,3330.7576285,N,11224.6009880,W,1.5061,088.804,240517,,,D*62
$GNRMC,193330.20,A,3330.7576264,N,11224.6008904,W,1.4453,092.221,240517,,,D*61
$GNRMC,193330.40,A,3330.7576273,N,11224.6007946,W,1.4075,092.066,240517,,,D*69
$GNRMC,193330.60,A,3330.7576266,N,11224.6006993,W,1.3940,090.449,240517,,,D*65
$GNRMC,193330.80,A,3330.7576311,N,11224.6006015,W,1.4608,087.025,240517,,,D*61
$GNRMC,193331.00,A,3330.7576369,N,11224.6005033,W,1.4718,085.274,240517,,,D*64
$GNRMC,193331.20,A,3330.7576414,N,11224.6004115,W,1.3832,085.802,240517,,,D*64
$GNRMC,193331.40,A,3330.7576432,N,11224.6003193,W,1.3631,089.026,240517,,,D*60
$GNRMC,193331.60,A,3330.7576456,N,11224.6002253,W,1.3937,090.308,240517,,,D*60
$GNRMC,193331.80,A,3330.7576463,N,11224.6001300,W,1.4219,091.420,240517,,,D*60
$GNRMC,193332.00,A,3330.7576499,N,11224.6000332,W,1.4709,087.635,240517,,,D*6B
$GNRMC,193332.20,A,3330.7576505,N,11224.5999370,W,1.4807,088.762,240517,,,D*6C
$GNRMC,193332.40,A,3330.7576542,N,11224.5998392,W,1.4267,087.248,240517,,,D*6A
$GNRMC,193332.60,A,3330.7576588,N,11224.5997403,W,1.4908,086.778,240517,,,D*6B
$GNRMC,193332.80,A,3330.7576645,N,11224.5996406,W,1.5402,086.354,240517,,,D*6F
$GNRMC,193333.00,A,3330.7576695,N,11224.5995450,W,1.4714,086.218,240517,,,D*67
$GNRMC,193333.20,A,3330.7576700,N,11224.5994494,W,1.4295,089.851,240517,,,D*65
$GNRMC,193333.40,A,3330.7576735,N,11224.5993545,W,1.4234,088.335,240517,,,D*6C
$GNRMC,193333.60,A,3330.7576758,N,11224.5992617,W,1.3926,088.923,240517,,,D*62
$GNRMC,193333.80,A,3330.7576784,N,11224.5991686,W,1.3937,088.551,240517,,,D*6F
$GNRMC,193334.00,A,3330.7576760,N,11224.5990752,W,1.4020,092.209,240517,,,D*6A
$GNRMC,193334.20,A,3330.7576783,N,11224.5989855,W,1.3445,089.668,240517,,,D*6C
$GNRMC,193334.40,A,3330.7576814,N,11224.5988931,W,1.4350,087.233,240517,,,D*69
$GNRMC,193334.60,A,3330.7576827,N,11224.5987987,W,1.4635,088.456,240517,,,D*65
$GNRMC,193334.80,A,3330.7576793,N,11224.5987040,W,1.4464,092.772,240517,,,D*61
$GNRMC,193335.00,A,3330.7576793,N,11224.5986082,W,1.4342,091.701,240517,,,D*63
$GNRMC,193335.20,A,3330.7576847,N,11224.5985063,W,1.5301,086.537,240517,,,D*6C
$GNRMC,193335.40,A,3330.7576794,N,11224.5984113,W,1.4863,087.914,240517,,,D*6E
$GNRMC,193335.60,A,3330.7576815,N,11224.5983134,W,1.4596,088.626,240517,,,D*6E
$GNRMC,193335.80,A,3330.7576822,N,11224.5982197,W,1.3949,089.481,240517,,,D*6B
$GNRMC,193336.00,A,3330.7576874,N,11224.5981212,W,1.4677,087.076,240517,,,D*69
$GNRMC,193336.20,A,3330.7576905,N,11224.5980254,W,1.4498,087.898,240517,,,D*64
$GNRMC,193336.40,A,3330.7576910,N,11224.5979291,W,1.4573,091.312,240517,,,D*63
$GNRMC,193336.60,A,3330.7576905,N,11224.5978352,W,1.4148,090.314,240517,,,D*61
$GNRMC,193336.80,A,3330.7576940,N,11224.5977420,W,1.3958,086.881,240517,,,D*6D
$GNRMC,193337.00,A,3330.7576991,N,11224.5976467,W,1.4414,085.523,240517,,,D*6E
$GNRMC,193337.20,A,3330.7577015,N,11224.5975545,W,1.3862,087.871,240517,,,D*68
$GNRMC,193337.40,A,3330.7577020,N,11224.5974552,W,1.4357,089.442,240517,,,D*67
$GNRMC,193337.60,A,3330.7577023,N,11224.5973598,W,1.4423,090.288,240517,,,D*6B
$GNRMC,193337.80,A,3330.7577022,N,11224.5972629,W,1.4742,090.573,240517,,,D*6B
$GNRMC,193338.00,A,3330.7577069,N,11224.5971690,W,1.4255,085.826,240517,,,D*68
$GNRMC,193338.20,A,3330.7577089,N,11224.5970745,W,1.4219,086.610,240517,,,D*6C
$GNRMC,193338.40,A,3330.7577115,N,11224.5969777,W,1.4275,087.817,240517,,,D*65
$GNRMC,193338.60,A,3330.7577097,N,11224.5968755,W,1.5402,091.048,240517,,,D*6F
$GNRMC,193338.80,A,3330.7577073,N,11224.5967756,W,1.5237,092.773,240517,,,D*6B
$GNRMC,193339.00,A,3330.7577112,N,11224.5966785,W,1.4726,086.860,240517,,,D*67
$GNRMC,193339.20,A,3330.7577129,N,11224.5965804,W,1.4572,087.056,240517,,,D*67
$GNRMC,193339.40,A,3330.7577123,N,11224.5964836,W,1.4439,090.837,240517,,,D*6C
$GNRMC,193339.60,A,3330.7577090,N,11224.5963896,W,1.4013,093.419,240517,,,D*65
$GNRMC,193339.80,A,3330.7577089,N,11224.5962968,W,1.3549,091.318,240517,,,D*6B
$GNRMC,193340.00,A,3330.7577107,N,11224.5962026,W,1.4031,087.949,240517,,,D*6D
$GNRMC,193340.20,A,3330.7577084,N,11224.5961070,W,1.4512,091.708,240517,,,D*6D
$GNRMC,193340.40,A,3330.7577075,N,11224.5960084,W,1.4383,090.985,240517,,,D*6B
$GNRMC,193340.60,A,3330.7577060,N,11224.5959139,W,1.4103,090.378,240517,,,D*62
$GNRMC,193340.80,A,3330.7577063,N,11224.5958172,W,1.4459,088.876,240517,,,D*67
$GNRMC,193341.00,A,3330.7577066,N,11224.5957237,W,1.4152,088.258,240517,,,D*6E
$GNRMC,193341.20,A,3330.7577069,N,11224.5956264,W,1.4534,089.256,240517,,,D*6F
$GNRMC,193341.40,A,3330.7577091,N,11224.5955302,W,1.4512,087.947,240517,,,D*6D
$GNRMC,193341.60,A,3330.7577088,N,11224.5954308,W,1.4685,089.804,240517,,,D*69
$GNRMC,193341.80,A,3330.7577121,N,11224.5953328,W,1.4598,087.758,240517,,,D*67
$GNRMC,193342.00,A,3330.7577106,N,11224.5952380,W,1.4003,090.404,240517,,,D*61
$GNRMC,193342.20,A,3330.7577119,N,11224.5951420,W,1.4140,089.684,240517,,,D*67
$GNRMC,193342.40,A,3330.7577127,N,11224.5950428,W,1.4058,088.574,240517,,,D*60
$GNRMC,193342.60,A,3330.7577131,N,11224.5949449,W,1.4449,089.968,240517,,,D*6E
$GNRMC,193342.80,A,3330.7577128,N,11224.5948454,W,1.4834,090.139,240517,,,D*67
$GNRMC,193343.00,A,3330.7577142,N,11224.5947503,W,1.4145,089.037,240517,,,D*66
$GNRMC,193343.20,A,3330.7577180,N,11224.5946527,W,1.4197,086.277,240517,,,D*6B
$GNRMC,193343.40,A,3330.7577207,N,11224.5945606,W,1.3813,087.978,240517,,,D*65
$GNRMC,193343.60,A,3330.7577199,N,11224.5944672,W,1.3734,091.393,240517,,,D*63
$GNRMC,193343.80,A,3330.7577183,N,11224.5943711,W,1.4557,092.263,240517,,,D*68
$GNRMC,193344.00,A,3330.7577171,N,11224.5942767,W,1.4293,091.823,240517,,,D*68
$GNRMC,193344.20,A,3330.7577123,N,11224.5941799,W,1.4749,093.597,240517,,,D*6D
$GNRMC,193344.40,A,3330.7577123,N,11224.5940837,W,1.4522,090.755,240517,,,D*61
$GNRMC,193344.60,A,3330.7577150,N,11224.5939869,W,1.4628,087.404,240517,,,D*6A
$GNRMC,193344.80,A,3330.7577199,N,11224.5938891,W,1.4643,085.710,240517,,,D*6E
$GNRMC,193345.00,A,3330.7577245,N,11224.5937956,W,1.4207,086.145,240517,,,D*61
$GNRMC,193345.20,A,3330.7577227,N,11224.5936999,W,1.4149,091.963,240517,,,D*66
$GNRMC,193345.40,A,3330.7577232,N,11224.5936029,W,1.4494,092.329,240517,,,D*64
$GNRMC,193345.60,A,3330.7577262,N,11224.5935035,W,1.4828,089.077,240517,,,D*64
$GNRMC,193345.80,A,3330.7577284,N,11224.5934084,W,1.4291,088.350,240517,,,D*66
$GNRMC,193346.00,A,3330.7577339,N,11224.5933166,W,1.3846,085.156,240517,,,D*6E
$GNRMC,193346.20,A,3330.7577339,N,11224.5932252,W,1.3774,088.817,240517,,,D*66
$GNRMC,193346.40,A,3330.7577339,N,11224.5931306,W,1.4421,087.947,240517,,,D*6C
$GNRMC,193346.60,A,3330.7577369,N,11224.5930323,W,1.5040,086.918,240517,,,D*64
$GNRMC,193346.80,A,3330.7577397,N,11224.5929329,W,1.5155,088.333,240517,,,D*61
$GNRMC,193347.00,A,3330.7577378,N,11224.5928355,W,1.4626,091.552,240517,,,D*68
$GNRMC,193347.20,A,3330.7577348,N,11224.5927381,W,1.4451,093.782,240517,,,D*60
$GNRMC,193347.40,A,3330.7577309,N,11224.5926418,W,1.4002,088.216,240517,,,D*65
$GNRMC,193347.60,A,3330.7577331,N,11224.5925500,W,1.3684,088.808,240517,,,D*6D
$GNRMC,193347.80,A,3330.7577359,N,11224.5924560,W,1.4128,088.126,240517,,,D*69
$GNRMC,193348.00,A,3330.7577357,N,11224.5923636,W,1.4099,089.607,240517,,,D*69
$GNRMC,193348.20,A,3330.7577393,N,11224.5922661,W,1.4708,088.252,240517,,,D*6A
$GNRMC,193348.40,A,3330.7577399,N,11224.5921713,W,1.4405,088.774,240517,,,D*6E
$GNRMC,193348.60,A,3330.7577385,N,11224.5920763,W,1.4272,092.831,240517,,,D*64
$GNRMC,193348.80,A,3330.7577387,N,11224.5919767,W,1.5113,090.150,240517,,,D*6F
$GNRMC,193349.00,A,3330.7577396,N,11224.5918829,W,1.4303,089.438,240517,,,D*63
$GNRMC,193349.20,A,3330.7577408,N,11224.5917908,W,1.3591,088.214,240517,,,D*6F
$GNRMC,193349.40,A,3330.7577378,N,11224.5916978,W,1.3684,092.066,240517,,,D*64
$GNRMC,193349.60,A,3330.7577408,N,11224.5916027,W,1.4194,088.618,240517,,,D*60
$GNRMC,193349.80,A,3330.7577427,N,11224.5915076,W,1.4378,088.117,240517,,,D*6C
$GNRMC,193350.00,A,3330.7577433,N,11224.5914112,W,1.4628,089.892,240517,,,D*6E
$GNRMC,193350.20,A,3330.7577404,N,11224.5913153,W,1.4524,093.068,240517,,,D*63
$GNRMC,193350.40,A,3330.7577348,N,11224.5912139,W,1.5383,094.923,240517,,,D*6C
$GNRMC,193350.60,A,3330.7577360,N,11224.5911163,W,1.4741,090.256,240517,,,D*6E
$GNRMC,193350.80,A,3330.7577341,N,11224.5910195,W,1.4643,090.133,240517,,,D*68
$GNRMC,193351.00,A,3330.7577347,N,11224.5909273,W,1.3725,088.999,240517,,,D*63
$GNRMC,193351.20,A,3330.7577349,N,11224.5908321,W,1.4245,087.937,240517,,,D*67
$GNRMC,193351.40,A,3330.7577362,N,11224.5907402,W,1.3849,089.042,240517,,,D*65
$GNRMC,193351.60,A,3330.7577362,N,11224.5906462,W,1.4050,089.875,240517,,,D*6B
$GNRMC,193351.80,A,3330.7577349,N,11224.5905528,W,1.3964,092.170,240517,,,D*6F
$GNRMC,193352.00,A,3330.7577364,N,11224.5904565,W,1.4615,089.539,240517,,,D*6E
$GNRMC,193352.20,A,3330.7577365,N,11224.5903652,W,1.3870,089.965,240517,,,D*62
$GNRMC,193352.40,A,3330.7577405,N,11224.5902606,W,1.4420,087.463,240517,,,D*6E
$GNRMC,193352.60,A,3330.7577388,N,11224.5901645,W,1.4528,091.161,240517,,,D*63
$GNRMC,193352.80,A,3330.7577355,N,11224.5900652,W,1.5203,093.452,240517,,,D*62
$GNRMC,193353.00,A,3330.7577318,N,11224.5899663,W,1.5160,093.156,240517,,,D*66
$GNRMC,193353.20,A,3330.7577274,N,11224.5898697,W,1.4738,094.132,240517,,,D*6A
$GNRMC,193353.40,A,3330.7577292,N,11224.5897776,W,1.3920,089.745,240517,,,D*6F
$GNRMC,193353.60,A,3330.7577272,N,11224.5896823,W,1.4281,090.646,240517,,,D*60
$GNRMC,193353.80,A,3330.7577276,N,11224.5895866,W,1.4372,090.884,240517,,,D*65
$GNRMC,193354.00,A,3330.7577294,N,11224.5894885,W,1.4869,088.450,240517,,,D*67
$GNRMC,193354.20,A,3330.7577260,N,11224.5893929,W,1.4542,092.490,240517,,,D*6D
$GNRMC,193354.40,A,3330.7577252,N,11224.5892961,W,1.4567,091.465,240517,,,D*69
$GNRMC,193354.60,A,3330.7577220,N,11224.5891982,W,1.4822,092.078,240517,,,D*67
$GNRMC,193354.80,A,3330.7577213,N,11224.5890997,W,1.4924,090.270,240517,,,D*63
$GNRMC,193355.00,A,3330.7577204,N,11224.5890038,W,1.4495,090.571,240517,,,D*61
$GNRMC,193355.20,A,3330.7577220,N,11224.5889086,W,1.4173,089.498,240517,,,D*6B
$GNRMC,193355.40,A,3330.7577215,N,11224.5888078,W,1.5304,089.590,240517,,,D*61
$GNRMC,193355.60,A,3330.7577204,N,11224.5887026,W,1.6131,091.022,240517,,,D*65
$GNRMC,193355.80,A,3330.7577195,N,11224.5885984,W,1.6059,090.295,240517,,,D*63
$GNRMC,193356.00,A,3330.7577180,N,11224.5884987,W,1.5136,090.087,240517,,,D*64
$GNRMC,193356.20,A,3330.7577170,N,11224.5884080,W,1.3367,090.828,240517,,,D*6A
$GNRMC,193356.40,A,3330.7577137,N,11224.5883088,W,1.4456,092.259,240517,,,D*6C
$GNRMC,193356.60,A,3330.7577087,N,11224.5882055,W,1.5830,094.271,240517,,,D*64
$GNRMC,193356.80,A,3330.7577057,N,11224.5881015,W,1.6072,092.448,240517,,,D*67
$GNRMC,193357.00,A,3330.7577004,N,11224.5880030,W,1.5167,094.396,240517,,,D*6A
$GNRMC,193357.20,A,3330.7577026,N,11224.5879033,W,1.4784,089.380,240517,,,D*6C
$GNRMC,193357.40,A,3330.7577007,N,11224.5878002,W,1.4661,089.605,240517,,,D*68
$GNRMC,193357.60,A,3330.7577015,N,11224.5877023,W,1.4661,089.245,240517,,,D*65
$GNRMC,193357.80,A,3330.7577000,N,11224.5876065,W,1.4564,090.535,240517,,,D*62
$GNRMC,193358.00,A,3330.7576993,N,11224.5875120,W,1.4073,091.183,240517,,,D*6F
$GNRMC,193358.20,A,3330.7576996,N,11224.5874180,W,1.4285,088.907,240517,,,D*64
$GNRMC,193358.40,A,3330.7576970,N,11224.5873268,W,1.4378,091.681,240517,,,D*62
$GNRMC,193358.60,A,3330.7576976,N,11224.5872298,W,1.4661,089.618,240517,,,D*6C
$GNRMC,193358.80,A,3330.7576949,N,11224.5871310,W,1.4928,091.642,240517,,,D*68
$GNRMC,193359.00,A,3330.7576927,N,11224.5870321,W,1.5098,092.394,240517,,,D*64
$GNRMC,193359.20,A,3330.7576885,N,11224.5869310,W,1.5350,094.007,240517,,,D*6D
$GNRMC,193359.40,A,3330.7576790,N,11224.5868332,W,1.5101,094.082,240517,,,D*6A
$GNRMC,193359.60,A,3330.7576740,N,11224.5867303,W,1.5482,094.113,240517,,,D*6F
$GNRMC,193359.80,A,3330.7576716,N,11224.5866280,W,1.5424,092.470,240517,,,D*63
$GNRMC,193400.00,A,3330.7576720,N,11224.5865337,W,1.3900,088.998,240517,,,D*66
$GNRMC,193400.20,A,3330.7576683,N,11224.5864537,W,1.1479,093.160,240517,,,D*6F
$GNRMC,193400.40,A,3330.7576662,N,11224.5863777,W,1.0323,092.327,240517,,,D*6E
$GNRMC,193400.60,A,3330.7576609,N,11224.5863161,W,0.8424,096.178,240517,,,D*65
$GNRMC,193400.80,A,3330.7576633,N,11224.5862591,W,0.7471,088.911,240517,,,D*6F
$GNRMC,193401.00,A,3330.7576585,N,11224.5862121,W,0.6195,097.027,240517,,,D*6B
$GNRMC,193401.20,A,3330.7576567,N,11224.5861747,W,0.4767,095.811,240517,,,D*66
$GNRMC,193401.40,A,3330.7576560,N,11224.5861440,W,0.3784,090.749,240517,,,D*6E
$GNRMC,193401.60,A,3330.7576579,N,11224.5861233,W,0.2478,080.006,240517,,,D*6A
$GNRMC,193401.80,A,3330.7576564,N,11224.5861096,W,0.1387,102.319,240517,,,D*67
$GNRMC,193402.00,A,3330.7576560,N,11224.5861048,W,0.0192,123.405,240517,,,D*65
$GNRMC,193402.20,A,3330.7576563,N,11224.5861125,W,0.1819,276.887,240517,,,D*60
$GNRMC,193402.40,A,3330.7576560,N,11224.5861113,W,0.0899,277.356,240517,,,D*6F
$GNRMC,193402.60,A,3330.7576552,N,11224.5861080,W,0.0608,106.918,240517,,,D*64
$GNRMC,193402.80,A,3330.7576550,N,11224.5861056,W,0.0688,092.411,240517,,,D*63
$GNRMC,193403.00,A,3330.7576554,N,11224.5861087,W,0.0249,315.460,240517,,,D*61
$GNRMC,193403.20,A,3330.7576558,N,11224.5861076,W,0.0383,060.117,240517,,,D*62
$GNRMC,193403.40,A,3330.7576554,N,11224.5861064,W,0.0473,084.099,240517,,,D*6E
$GNRMC,193403.60,A,3330.7576547,N,11224.5861072,W,0.0061,180.814,240517,,,D*66
$GNRMC,193403.80,A,3330.7576543,N,11224.5861088,W,0.0318,240.568,240517,,,D*6D
$GNRMC,193404.00,A,3330.7576543,N,11224.5861072,W,0.0185,129.049,240517,,,D*6B
$GNRMC,193404.20,A,3330.7576542,N,11224.5861064,W,0.0216,122.541,240517,,,D*60
$GNRMC,193404.40,A,3330.7576554,N,11224.5861037,W,0.0144,350.287,240517,,